,City,Cloudiness,Country,Date,Humidity,Lat,Lng,Max Temp,Wind Speed
0,Port Elizabeth,1,US,1578359128,44,39.31,-74.98,281.15,3.6
1,Ola,0,RU,1578359129,69,59.58,151.3,257.47,2.29
2,Cape Town,99,ZA,1578358907,68,-33.93,18.42,293.15,8.7
3,Busselton,10,AU,1578359105,45,-33.64,115.35,299.26,0.45
4,Nome,75,US,1578359129,82,30.04,-94.42,292.59,2.1
5,Serov,0,RU,1578359129,87,59.61,60.57,259.57,1.91
6,Vaini,75,IN,1578359111,94,15.34,74.49,293.15,2.1
7,Albany,75,US,1578359095,64,42.65,-73.75,274.26,2.1
8,Tasiilaq,100,GL,1578359103,94,65.61,-37.64,267.11,14.06
9,Norman Wells,40,CA,1578359129,65,65.28,-126.83,234.15,1.41
10,Lavrentiya,84,RU,1578359130,91,65.58,-170.99,250.59,0.3
11,Hirara,20,JP,1578359130,69,24.8,125.28,296.15,5.7
12,Bluff,51,AU,1578359107,55,-23.58,149.07,301.52,5.99
13,Thompson,90,CA,1578358923,84,55.74,-97.86,254.15,4.1
14,Port Alfred,100,ZA,1578359130,97,-33.59,26.89,293.71,2.71
15,Avarua,33,CK,1578359130,83,-21.21,-159.78,301.15,3.1
16,Saint-Philippe,40,CA,1578359110,85,45.36,-73.48,269.82,1.5
17,Broome,34,GB,1578358960,93,52.47,1.45,279.82,5.1
18,Nikolskoye,90,RU,1578359103,96,59.7,30.79,274.26,3.0
19,Kapaa,75,US,1578359133,74,22.08,-159.32,300.15,7.7
20,Punta Arenas,90,CL,1578359097,81,-53.16,-70.91,285.15,7.2
21,Hobart,75,AU,1578359075,63,-42.88,147.33,294.82,6.2
22,Souillac,90,FR,1578358935,93,45.6,-0.6,279.26,1.5
23,Skjervoy,100,NO,1578359133,77,70.03,20.97,276.71,6.82
24,Cangzhou,100,CN,1578359133,60,38.3,116.85,274.9,4.2
25,Bahia Blanca,2,AR,1578359108,34,-38.72,-62.27,291.96,3.12
26,Bredasdorp,92,ZA,1578359133,77,-34.53,20.04,291.48,1.0
27,Ankang,100,CN,1578358957,97,32.73,108.99,274.67,0.87
28,Peterhead,0,AU,1578359136,53,-34.83,138.5,300.37,5.7
29,Antofagasta,20,CL,1578359136,88,-23.65,-70.4,293.15,4.1
30,Kavieng,100,PG,1578359136,71,-2.57,150.8,302.43,1.96
31,Dalby,75,AU,1578359136,45,-27.18,151.26,301.15,5.1
32,Chokurdakh,40,RU,1578359098,99,70.62,147.9,243.03,1.31
33,New Norfolk,75,AU,1578359097,63,-42.78,147.06,294.82,6.2
34,Mar del Plata,69,AR,1578359064,58,-46.43,-67.52,289.84,3.7
35,Puerto Ayora,75,EC,1578358931,65,-0.74,-90.35,301.15,5.7
36,Tuatapere,99,NZ,1578359137,68,-46.13,167.69,287.59,4.47
37,Hermanus,100,ZA,1578359137,79,-34.42,19.24,291.48,3.58
38,Bambous Virieux,40,MU,1578359137,100,-20.34,57.76,298.15,2.27
39,Carpinteria,20,US,1578359137,20,34.4,-119.52,294.15,4.6
40,Barrow,32,AR,1578359106,62,-38.31,-60.23,288.63,3.57
41,Vanimo,86,PG,1578358934,78,-2.67,141.3,301.36,3.04
42,Taoudenni,17,ML,1578359139,18,22.68,-3.98,284.96,3.07
43,Kaitangata,0,NZ,1578359139,56,-46.28,169.85,287.59,6.26
44,Te Anau,97,NZ,1578358950,87,-45.41,167.72,282.0,2.58
45,Aklavik,20,CA,1578359139,65,68.22,-135.01,236.15,1.6
46,Nantucket,1,US,1578359060,80,41.28,-70.1,275.37,2.1
47,Ciudad Guayana,21,VE,1578359140,76,8.32,-62.69,298.32,2.82
48,Cidreira,33,BR,1578359112,78,-30.17,-50.22,298.64,6.57
49,Cabo San Lucas,5,MX,1578359127,53,22.89,-109.91,297.15,5.1
50,Qaanaaq,45,GL,1578359141,62,77.48,-69.36,247.67,4.83
51,Shizunai,87,JP,1578359141,61,42.33,142.37,269.49,1.15
52,Rawson,0,AR,1578359141,63,-43.3,-65.11,287.88,5.76
53,Kiskunfelegyhaza,0,HU,1578359141,92,46.71,19.84,268.71,0.7
54,Avera,1,US,1578359141,81,33.19,-82.53,287.15,2.77
55,Fez,49,MA,1578359141,86,34.03,-5.02,277.15,1.5
56,Rikitea,92,PF,1578359096,74,-23.12,-134.97,298.09,5.31
57,San Policarpo,81,PH,1578358931,83,12.18,125.51,299.98,6.15
58,Ushuaia,75,AR,1578359107,66,-54.81,-68.31,283.15,3.1
59,Yabelo,18,ET,1578359142,67,4.89,38.09,292.04,3.8
60,Itoman,75,JP,1578359142,64,26.12,127.67,296.15,5.7
61,Coihaique,90,CL,1578359142,71,-45.58,-72.07,286.15,2.6
62,Redlands,1,US,1578359142,38,34.06,-117.19,297.15,2.04
63,Touros,20,BR,1578359052,78,-5.2,-35.46,300.15,3.6
64,Ponta do Sol,6,BR,1578359144,91,-20.63,-46.0,293.47,0.86
65,Cairns,90,AU,1578359144,70,-16.92,145.77,303.71,2.1
66,Moron,0,HT,1578359144,73,18.56,-74.26,297.95,6.38
67,Adeje,2,NG,1578359144,71,5.68,5.76,297.31,1.03
68,Lompoc,1,US,1578359145,45,34.64,-120.46,294.15,1.5
69,Tiksi,100,RU,1578359145,85,71.64,128.87,254.09,7.41
70,Sur,0,OM,1578359145,84,22.57,59.53,294.39,4.09
71,Sao Joao da Barra,100,BR,1578359113,88,-21.64,-41.05,298.76,6.7
72,Tamale,34,GH,1578359145,27,9.4,-0.84,298.7,2.99
73,Arraial do Cabo,75,BR,1578359145,94,-22.97,-42.02,298.15,1.5
74,Dingle,61,PH,1578359145,91,11.0,122.67,297.7,4.75
75,Castro,90,CL,1578359145,100,-42.48,-73.76,285.15,4.1
76,Mataura,88,NZ,1578358926,68,-46.19,168.86,287.59,4.47
77,Vila,2,IT,1578359147,100,45.18,8.4,275.37,1.5
78,Hearst,99,CA,1578358798,93,49.69,-83.67,257.57,3.23
79,Jamestown,0,AU,1578359103,40,-33.21,138.6,296.61,3.5
80,Dakar,72,SN,1578358878,45,14.69,-17.45,294.15,5.7
81,Tuktoyaktuk,75,CA,1578358922,74,69.44,-133.03,242.15,4.1
82,Khasan,100,RU,1578359147,93,42.43,130.64,268.01,1.73
83,Eirunepe,25,BR,1578359147,70,-6.66,-69.87,299.74,1.15
84,Quatre Cocos,40,MU,1578359147,100,-20.21,57.76,298.15,3.16
85,Khatanga,99,RU,1578359105,93,71.98,102.47,259.9,5.57
86,Okhotsk,0,RU,1578359098,78,59.36,143.24,250.62,5.81
87,Sao Filipe,65,CV,1578359112,63,14.9,-24.5,294.29,8.26
88,Mizque,52,BO,1578359148,69,-17.94,-65.34,291.45,3.09
89,Gladstone,40,AU,1578359149,69,-23.84,151.26,302.59,6.2
90,Leshukonskoye,100,RU,1578359149,94,64.9,45.76,264.48,3.08
91,Vila Velha,40,BR,1578359149,74,-3.71,-38.6,303.15,2.6
92,East London,100,ZA,1578358921,74,-33.02,27.91,295.7,1.81
93,Kaeo,61,NZ,1578359102,52,-35.1,173.78,294.26,4.02
94,Maniitsoq,100,GL,1578358959,86,65.42,-52.9,255.92,4.91
95,Prince Rupert,75,CA,1578359150,100,54.32,-130.32,274.15,1.5
96,Cherskiy,0,RU,1578359150,71,68.75,161.3,246.35,2.67
97,Half Moon Bay,1,US,1578358956,76,37.46,-122.43,288.71,7.2
98,Necochea,0,AR,1578359150,79,-38.55,-58.74,288.71,4.02
99,Honiara,40,SB,1578359150,55,-9.43,159.96,306.15,8.2
100,Kodiak,40,US,1578359106,64,39.95,-94.76,275.37,1.5
101,Ust-Tsilma,99,RU,1578359151,91,65.44,52.15,261.42,2.46
102,Teya,75,MX,1578359152,60,21.05,-89.07,297.15,3.6
103,Cayenne,52,GF,1578359152,88,4.94,-52.33,297.15,1.75
104,Isla Vista,1,US,1578359152,45,34.41,-119.86,294.15,1.5
105,Ancud,90,CL,1578359152,100,-41.87,-73.83,285.15,4.1
106,Oga,5,IT,1578359152,74,46.46,10.35,273.71,2.6
107,Hithadhoo,100,MV,1578359113,73,-0.6,73.08,301.87,5.96
108,Tieling,100,CN,1578359152,95,42.29,123.84,260.05,3.46
109,Ixtapa,40,MX,1578358960,65,20.71,-105.21,298.15,2.1
110,Evanston,90,US,1578359047,47,42.04,-87.69,276.15,3.6
111,Victoria,75,BN,1578358918,83,5.28,115.24,301.15,4.83
112,Hobyo,58,SO,1578359154,82,5.35,48.53,298.79,5.96
113,Saint-Leu,90,RE,1578359154,88,-21.15,55.28,297.15,2.1
114,Bethel,1,US,1578359154,68,60.79,-161.76,247.15,5.1
115,Nemuro,40,JP,1578358924,58,43.32,145.57,272.15,2.6
116,Igarka,100,RU,1578359155,95,67.47,86.57,260.32,3.74
117,Minab,20,IR,1578359156,93,27.15,57.07,285.15,3.1
118,Laguna,90,BZ,1578359156,88,16.17,-88.94,295.15,0.82
119,Ahipara,85,NZ,1578359156,68,-35.17,173.16,289.92,9.89
120,Bandarban,0,BD,1578359156,83,22.2,92.22,283.75,1.99
121,Dikson,100,RU,1578359156,95,73.51,80.55,262.03,3.88
122,Thiruvananthapuram,20,IN,1578359156,100,8.48,76.92,298.15,1.31
123,Bonavista,100,CA,1578359157,77,48.65,-53.11,269.95,4.94
124,Verkhnevilyuysk,100,RU,1578359157,94,63.45,120.31,264.26,3.32
125,Eyl,79,SO,1578359157,82,7.98,49.82,299.62,7.93
126,Saskylakh,87,RU,1578359110,93,71.97,114.09,255.05,3.65
127,Kalmunai,34,LK,1578359157,75,7.42,81.82,300.95,6.54
128,San Rafael,27,AR,1578358953,20,-34.61,-68.33,298.85,4.81
129,Yar-Sale,25,RU,1578359157,84,66.83,70.83,259.11,6.94
130,Varhaug,75,NO,1578359158,100,58.61,5.65,280.93,4.6
131,Lianyuan,100,CN,1578359158,91,27.69,111.67,278.36,2.17
132,Road Town,20,VG,1578359114,69,18.42,-64.62,299.15,3.1
133,Butaritari,100,KI,1578359158,78,3.07,172.79,302.45,8.83
134,Taybad,0,IR,1578359159,86,34.74,60.78,274.25,2.38
135,Fortuna,1,US,1578358946,71,40.6,-124.16,285.15,3.1
136,Solwezi,100,ZM,1578359159,99,-12.18,26.4,290.28,0.09
137,Sinnamary,59,GF,1578358962,78,5.38,-52.96,299.35,6.85
138,Coahuayana,38,MX,1578359160,30,18.62,-100.35,299.83,0.62
139,Lufilufi,75,WS,1578359160,74,-13.87,-171.6,304.15,4.6
140,Lebu,75,ET,1578358928,87,8.96,38.73,285.15,1.0
141,Parabel,97,RU,1578359161,94,58.71,81.5,262.42,3.19
142,Shahreza,0,IR,1578359162,60,32.01,51.87,272.2,0.33
143,Severo-Kurilsk,100,RU,1578359163,73,50.68,156.12,269.31,7.39
144,Balkhash,91,KZ,1578359163,80,46.84,74.98,263.71,2.12
145,Port-Gentil,83,GA,1578359163,78,-0.72,8.78,300.87,3.69
146,Ilulissat,100,GL,1578358928,58,69.22,-51.1,252.15,5.1
147,Orange Walk,40,JM,1578359163,78,17.93,-76.27,300.15,2.1
148,San Vicente,75,EC,1578359163,83,-0.59,-80.41,299.15,4.6
149,Chuy,33,UY,1578359163,76,-33.69,-53.46,293.21,2.67
150,Gimli,55,CA,1578358867,81,50.63,-96.99,268.15,5.38
151,Maningrida,100,AU,1578359164,60,-12.05,134.23,304.1,2.64
152,Kandiari,92,PK,1578359164,86,26.92,68.52,285.26,5.32
153,Northam,0,AU,1578359164,32,-31.65,116.67,300.15,2.6
154,Tulsipur,100,IN,1578359164,73,27.53,82.41,285.1,1.34
155,Poum,0,MK,1578359164,61,41.28,20.71,267.76,2.01
156,Xuzhou,100,CN,1578359164,92,34.27,117.18,278.19,4.4
157,Dandong,100,CN,1578359164,74,40.12,124.37,272.48,6.02
158,Margate,75,AU,1578359164,63,-43.03,147.26,294.82,6.2
159,Klyuchi,33,RU,1578359165,88,52.25,79.17,259.74,1.76
160,Mount Gambier,25,AU,1578359165,49,-37.83,140.78,295.15,4.6
161,Young,66,UY,1578359165,53,-32.7,-57.63,293.71,0.89
162,Carnarvon,83,ZA,1578359165,72,-30.97,22.13,290.82,4.56
163,Montefiascone,0,IT,1578359165,46,42.54,12.04,276.48,2.51
164,Weleri,40,ID,1578359165,94,-6.97,110.07,302.59,3.1
165,Bilibino,0,RU,1578359165,93,68.06,166.44,245.35,1.18
166,Kasese,100,UG,1578359165,74,0.17,30.09,291.54,0.71
167,Bowen,40,AU,1578359165,70,-20.01,148.25,304.26,6.2
168,Takoradi,47,GH,1578359166,69,4.89,-1.75,299.07,1.64
169,Saint-Denis,90,FR,1578359166,87,48.94,2.36,281.15,2.6
170,Labuhan,100,ID,1578359166,92,-2.54,115.51,297.25,0.64
171,Esperance,0,AU,1578359166,18,-33.86,121.89,302.15,8.2
172,Atuona,0,PF,1578358926,70,-9.8,-139.03,300.12,5.51
173,Kargasok,99,RU,1578359166,94,59.06,80.87,262.43,4.08
174,Mehamn,76,NO,1578359166,89,71.03,27.85,269.05,5.21
175,Port Arthur,20,US,1578359167,87,29.9,-93.93,291.48,2.6
176,Tanout,33,NE,1578359167,20,14.97,8.88,289.1,5.45
177,Port Hedland,75,AU,1578359167,49,-20.31,118.58,305.15,7.7
178,Rabo de Peixe,75,PT,1578359167,93,37.8,-25.58,291.15,4.6
179,Upernavik,100,GL,1578359167,92,72.79,-56.15,253.12,1.81
180,Henties Bay,32,NA,1578359167,88,-22.12,14.28,290.37,0.89
181,Penzance,93,GB,1578359167,100,50.12,-5.53,284.26,3.6
182,Airai,98,TL,1578358933,62,-8.93,125.41,298.1,1.52
183,Longyearbyen,40,NO,1578359167,51,78.22,15.63,262.15,5.1
184,Nanortalik,0,GL,1578359168,71,60.14,-45.24,263.61,22.71
185,Huntsville,1,US,1578359079,81,34.73,-86.59,285.15,0.14
186,Saint-Augustin,90,CA,1578359168,92,45.63,-73.98,265.93,1.5
187,Husavik,55,CA,1578359168,82,50.56,-96.99,268.15,5.38
188,Ponce,49,PR,1578359105,91,18.01,-66.61,298.15,3.28
189,Coquimbo,0,CL,1578359034,64,-29.95,-71.34,293.15,3.6
190,Seoul,90,KR,1578358748,93,37.57,126.98,280.15,2.0
191,Daman,0,IN,1578359169,65,20.42,72.83,293.4,1.0
192,Corrente,20,BR,1578359169,95,-17.45,-44.68,293.94,0.92
193,Springbok,48,ZA,1578359169,80,-29.67,17.88,287.59,0.79
194,Broken Hill,0,AU,1578359169,42,-31.97,141.45,300.15,7.7
195,Yellowknife,75,CA,1578359108,74,62.45,-114.38,243.15,3.6
196,Chumikan,0,RU,1578359169,74,54.72,135.31,258.66,3.42
197,Biak,100,ID,1578359169,75,-0.91,122.88,300.27,3.77
198,Marrakesh,21,MA,1578359169,76,31.63,-7.99,282.15,0.5
199,Killybegs,44,IE,1578359170,89,54.63,-8.45,281.48,6.71
200,Esperanza,2,AR,1578359170,44,-31.45,-60.93,296.48,0.89
201,Camacha,20,PT,1578358929,72,33.08,-16.33,290.15,3.6
202,Faanui,76,PF,1578359170,79,-16.48,-151.75,300.94,7.08
203,La Rioja,0,AR,1578359090,35,-29.41,-66.86,294.24,1.84
204,Soyo,99,AO,1578359113,83,-6.13,12.37,300.0,1.79
205,Aksu,90,KZ,1578359170,92,52.04,76.93,259.15,1.0
206,Yulara,40,AU,1578359170,54,-25.24,130.99,300.15,7.2
207,Lorengau,80,PG,1578359170,76,-2.02,147.27,302.05,3.84
208,Cojutepeque,75,SV,1578359171,57,13.72,-88.93,301.15,3.6
209,Bosaso,61,SO,1578359171,73,11.28,49.18,299.18,2.75
210,San Juan,0,AR,1578359171,17,-31.54,-68.53,300.51,5.12
211,Yuzhno-Kurilsk,98,RU,1578359171,85,44.03,145.86,271.17,13.24
212,Talnakh,100,RU,1578359171,85,69.49,88.39,262.15,8.0
213,Forio,0,IT,1578359171,64,40.73,13.86,281.15,1.0
214,Sibolga,88,ID,1578359171,91,1.74,98.78,294.37,1.48
215,Kovdor,7,RU,1578359172,94,67.56,30.47,263.48,2.05
216,Rocha,100,UY,1578359172,43,-34.48,-54.34,292.88,3.11
217,Pevek,0,RU,1578359172,67,69.7,170.27,250.72,2.53
218,Marzuq,0,YE,1578359110,67,14.4,46.47,287.99,1.38
219,Pandan,88,PH,1578359172,80,11.72,122.09,299.66,6.86
220,Gat,77,SN,1578359172,45,14.69,-16.54,293.15,5.7
221,Salamanca,75,MX,1578359172,11,20.57,-101.19,296.15,1.98
222,Makakilo City,40,US,1578359173,65,21.35,-158.09,301.15,5.7
223,Poplar Bluff,1,US,1578358947,75,36.76,-90.39,279.15,1.17
224,Oloron-Sainte-Marie,90,FR,1578359173,100,43.19,-0.61,284.26,2.6
225,Le Port,23,FR,1578359173,86,42.87,1.37,278.71,2.68
226,LOS ALGARROBOS,40,EC,1578359173,65,-3.25,-79.94,305.15,2.6
227,Saint Stephen,83,US,1578359173,92,45.7,-94.27,273.15,4.6
228,Porto Novo,75,BR,1578359173,65,-23.68,-45.44,299.15,1.5
229,Shiyan,99,CN,1578359173,99,32.65,110.78,275.17,2.28
230,Ossora,88,RU,1578359174,94,59.24,163.07,260.3,2.2
231,Paamiut,70,GL,1578359174,75,61.99,-49.67,255.16,6.19
232,Cam Ranh,20,VN,1578359174,78,11.92,109.15,299.15,3.1
233,Magadi,75,IN,1578359174,100,12.96,77.22,293.15,1.5
234,Bria,84,CF,1578359174,42,6.54,21.99,292.87,1.52
235,Strezhevoy,75,RU,1578359174,92,60.73,77.6,269.15,5.0
236,Hilo,90,US,1578359174,57,19.71,-155.08,299.15,3.1
237,Diu,0,IN,1578359174,78,20.71,70.98,296.37,2.83
238,Birakan,100,RU,1578359174,89,49.02,131.7,258.56,0.22
239,Pouebo,76,NC,1578359175,61,-20.4,164.57,299.93,2.25
240,Dongli,20,CN,1578359175,88,24.18,117.61,291.15,2.0
241,Jining,100,CN,1578358945,92,35.41,116.58,277.7,4.64
242,Pasni,36,PK,1578359175,81,25.26,63.48,293.17,1.1
243,Umm Lajj,0,SA,1578359175,66,25.02,37.27,285.16,2.45
244,Lyubymivka,0,UA,1578359175,81,46.81,33.57,271.17,6.73
245,Klaksvik,23,FO,1578359111,75,62.23,-6.59,279.15,8.2
246,Faya,0,SA,1578359175,71,18.39,42.45,286.15,4.1
247,Lexington,1,US,1578358952,64,38.05,-84.5,277.15,1.39
248,Abu Samrah,0,SY,1578359176,73,35.3,37.18,280.59,2.53
249,Zhigansk,100,RU,1578359176,95,66.77,123.37,254.63,7.22
250,Luderitz,100,NA,1578359176,77,-26.65,15.16,289.15,7.7
251,Ellisras,97,ZA,1578359176,41,-23.67,27.74,298.95,3.8
252,Genhe,60,CN,1578359176,96,50.78,121.52,254.16,1.45
253,Torbay,90,CA,1578359113,85,47.66,-52.73,269.82,4.6
254,Havoysund,100,NO,1578359176,64,71.0,24.66,276.15,9.3
255,Egvekinot,0,RU,1578359177,73,66.32,-179.17,247.71,2.94
256,Batemans Bay,66,AU,1578359177,41,-35.71,150.18,302.59,4.47
257,Carlsbad,0,CZ,1578359058,100,50.23,12.87,273.71,2.1
258,Bocas del Toro,17,PA,1578359177,69,9.33,-82.25,292.59,5.81
259,Luzhou,0,CN,1578359177,82,28.89,105.45,280.12,1.78
260,Salalah,0,OM,1578358955,78,17.01,54.1,297.15,3.1
261,Saint George,20,GR,1578359177,64,39.45,22.34,275.15,2.6
262,Kisanga,100,CD,1578359177,94,-11.72,27.4,291.58,1.18
263,Karratha,100,AU,1578359100,71,-20.74,116.85,303.5,1.05
264,Kuala Lipis,48,MY,1578359177,95,4.19,102.05,293.35,0.34
265,Victor Harbor,0,AU,1578359178,53,-35.55,138.62,300.37,5.7
266,Magadan,0,RU,1578359178,69,59.56,150.8,258.07,3.81
267,Lagoa,0,PT,1578359159,93,37.14,-8.45,284.82,1.5
268,Macae,75,BR,1578359178,100,-22.37,-41.79,298.15,1.5
269,Nouadhibou,100,MR,1578359178,72,20.93,-17.03,289.15,9.3
270,Portland,90,US,1578358933,68,43.66,-70.25,270.15,2.1
271,Sorland,100,NO,1578359178,85,67.67,12.69,280.03,15.46
272,Kedrovyy,15,RU,1578359178,84,56.17,91.82,260.15,2.16
273,Katsuura,90,JP,1578359178,81,33.93,134.5,280.37,1.0
274,Brezice,0,SI,1578359179,92,45.9,15.59,270.93,0.84
275,Mahebourg,40,MU,1578359179,100,-20.41,57.7,298.15,0.8
276,Poya,50,NC,1578359179,81,-21.35,165.16,297.51,7.49
277,Luganville,75,VU,1578359179,74,-15.51,167.18,303.15,5.1
278,Qaqortoq,0,GL,1578359179,36,60.72,-46.03,253.15,2.6
279,Codrington,40,AU,1578359179,48,-28.95,153.24,304.15,5.1
280,Muroto,75,JP,1578359179,93,33.37,134.14,282.15,3.6
281,Acapulco,5,MX,1578359101,69,16.86,-99.88,301.15,1.5
282,Grand Gaube,40,MU,1578359111,100,-20.01,57.66,298.15,1.46
283,Deer Lake,90,CA,1578359180,79,49.18,-57.43,266.15,1.0
284,Williamsburg,1,US,1578359180,80,37.27,-76.71,280.93,1.4
285,Oksfjord,94,NO,1578359180,68,70.24,22.35,276.15,9.3
286,Yuncheng,100,CN,1578359180,98,35.03,111.0,274.54,3.24
287,Aguimes,75,ES,1578359180,68,27.91,-15.45,291.15,7.2
288,Zhanakorgan,62,KZ,1578359180,81,43.91,67.25,268.8,3.48
289,Timra,91,SE,1578359180,100,62.49,17.33,276.48,1.5
290,Santa Cruz,69,BR,1578359083,81,-6.22,-36.02,296.82,1.84
291,Baykit,86,RU,1578359180,97,61.68,96.39,257.11,1.51
292,Camapua,85,BR,1578359181,88,-19.53,-54.04,297.04,1.29
293,Robertsport,0,LR,1578359181,71,6.75,-11.37,300.42,4.93
294,Progreso,75,UY,1578358950,56,-34.68,-56.22,296.15,4.1
295,Berlevag,26,NO,1578359181,74,70.86,29.09,272.28,4.23
296,Nuevitas,20,CU,1578359181,73,21.55,-77.27,294.15,3.6
297,Palauig,0,PH,1578359181,64,15.44,119.9,298.02,1.51
298,De Aar,38,ZA,1578359181,51,-30.65,24.01,295.64,5.52
299,Barashevo,67,RU,1578359181,96,54.42,42.11,266.87,0.3
300,Christchurch,20,NZ,1578359181,51,-43.53,172.64,289.26,9.3
301,Vardo,1,US,1578359182,44,39.62,-77.74,279.15,2.1
302,Gorodishche,89,RU,1578359182,70,53.27,45.7,272.04,1.53
303,Santa Maria,40,BR,1578359030,83,-16.02,-48.01,296.15,2.1
304,Los Llanos de Aridane,20,ES,1578359182,67,28.66,-17.92,290.15,7.2
305,Uray,0,RU,1578359182,91,60.13,64.8,257.91,2.5
306,Yulin,100,CN,1578359182,52,38.3,109.75,267.81,7.33
307,Businga,33,CD,1578359182,36,3.34,20.89,294.62,0.48
308,Grants Pass,1,US,1578359182,75,42.44,-123.33,282.04,0.73
309,Inuvik,40,CA,1578359183,65,68.36,-133.71,236.15,1.19
310,Kenai,20,US,1578359138,70,60.55,-151.26,257.15,2.6
311,Yumen,18,CN,1578359183,69,40.29,97.04,263.99,4.87
312,Ife,13,NG,1578359183,49,7.48,4.55,294.45,0.54
313,Encheng,0,CN,1578359183,93,22.74,107.09,289.24,0.57
314,Kondopoga,100,RU,1578359183,92,62.21,34.27,273.15,4.0
315,Saldanha,45,PT,1578359183,81,41.42,-6.55,275.86,1.21
316,Veseli nad Moravou,0,CZ,1578359184,92,48.95,17.38,269.26,1.5
317,Vrangel,100,RU,1578359184,84,42.73,133.08,273.28,10.74
318,Pisco,0,PE,1578359076,83,-13.71,-76.2,295.15,7.7
319,Bandarbeyla,65,SO,1578359184,82,9.49,50.81,299.2,6.32
320,Ous,0,RU,1578359184,88,60.91,61.52,258.62,2.28
321,Hasaki,75,JP,1578358908,67,35.73,140.83,280.37,3.1
322,Makaha,40,US,1578359184,65,21.47,-158.22,301.15,5.7
323,Santa Vitoria do Palmar,33,BR,1578359180,76,-33.52,-53.37,293.21,2.67
324,Georgetown,23,GY,1578358949,83,6.8,-58.16,299.15,2.1
325,Hofn,28,IS,1578359185,64,64.25,-15.21,278.06,15.11
326,Nichinan,75,JP,1578359185,76,31.65,131.31,287.15,2.6
327,Nobres,41,BR,1578359185,85,-14.72,-56.34,297.13,3.51
328,Port Moresby,20,PG,1578359185,66,-9.47,147.16,304.15,4.1
329,Saint-Pierre,90,FR,1578359185,100,48.95,4.24,279.15,7.2
330,Chacabuco,0,AR,1578359185,80,-34.64,-60.47,288.15,0.89
331,Saint-Francois,49,FR,1578359185,92,46.42,3.91,277.59,1.5
332,Ribeira Grande,97,PT,1578359185,94,38.52,-28.7,289.55,7.87
333,Nizhnevartovsk,75,RU,1578359185,92,60.93,76.58,269.15,5.0
334,Port Lincoln,0,AU,1578359186,60,-34.72,135.86,293.7,4.03
335,Alekseyevka,75,RU,1578359186,92,53.25,50.49,268.15,2.33
336,Mitchell,90,US,1578359092,74,43.71,-98.03,274.15,3.1
337,Vostok,89,RU,1578359186,79,46.45,135.83,261.06,1.21
338,Chinameca,34,SV,1578359186,54,13.51,-88.35,298.96,0.43
339,Blois,90,FR,1578358993,100,47.59,1.33,280.15,2.1
340,Sitka,0,US,1578359186,30,37.17,-99.65,281.2,4.22
341,Ishim,95,RU,1578359186,97,56.11,69.47,264.47,2.43
342,Cap Malheureux,40,MU,1578359186,100,-19.98,57.61,298.15,1.06
343,Kozhva,100,RU,1578359186,94,65.11,57.05,258.51,3.47
344,Havre-Saint-Pierre,1,CA,1578359187,64,50.23,-63.6,254.15,4.6
345,Wewak,84,PG,1578359187,68,-3.55,143.63,302.6,1.05
346,Kahului,20,US,1578358935,51,20.89,-156.47,301.15,9.3
347,Guarapari,40,BR,1578359187,83,-20.67,-40.5,301.48,3.6
348,Sangar,100,RU,1578359187,94,63.92,127.47,254.71,5.25
349,Kruisfontein,100,ZA,1578359187,93,-34.0,24.73,290.43,2.78
350,Kirakira,81,SB,1578359187,71,-10.46,161.92,302.76,4.82
351,Roxana,20,CR,1578359187,72,10.27,-83.75,296.15,6.7
352,Rundu,100,NA,1578359187,100,-17.91,19.77,294.15,0.5
353,Cockburn Town,94,TC,1578358907,85,21.46,-71.14,297.73,9.6
354,Wilmington,1,US,1578359188,44,39.75,-75.55,280.15,3.1
355,Muncar,99,ID,1578359188,80,-8.43,114.34,300.68,4.53
356,Puerto Colombia,20,CO,1578359188,78,10.99,-74.96,300.15,7.2
357,Chifeng,67,CN,1578358941,65,42.27,118.96,264.28,5.41
358,Pushkinskiye Gory,98,RU,1578359188,97,57.02,28.91,273.81,2.33
359,Dongsheng,100,CN,1578359188,89,29.72,112.52,276.81,5.33
360,Borujerd,0,IR,1578359189,76,33.89,48.76,269.51,1.14
361,Ornskoldsvik,87,SE,1578359189,100,63.29,18.72,269.15,1.5
362,Haines Junction,100,CA,1578359189,98,60.75,-137.51,255.87,1.1
363,Esik,75,KZ,1578359189,100,43.36,77.47,266.15,3.0
364,Humberto de Campos,83,BR,1578359189,89,-2.6,-43.46,298.17,2.19
365,Weligama,25,LK,1578359189,89,5.97,80.42,295.46,3.07
366,Aginskoye,0,RU,1578359189,92,51.11,114.54,254.58,1.96
367,Kandrian,100,PG,1578359189,72,-6.21,149.55,302.19,1.67
368,Moyale,0,ET,1578359189,54,3.52,39.05,297.23,3.74
369,Shelburne,75,CA,1578359190,63,44.08,-80.2,273.15,2.1
370,Xochihuehuetlan,0,MX,1578359190,28,17.92,-98.43,297.34,1.88
371,Belvedere Marittimo,0,IT,1578359190,65,39.62,15.86,278.71,2.34
372,Nioro,68,GM,1578359190,15,13.79,-15.05,292.57,4.48
373,Barcelos,3,BR,1578359190,71,-0.97,-62.93,300.11,0.94
374,Altagracia de Orituco,1,VE,1578358962,97,9.86,-66.38,292.24,1.45
375,Chandrakona,0,IN,1578359190,55,22.73,87.51,287.16,2.45
376,Posse,87,BR,1578359190,96,-14.08,-46.36,293.9,3.14
377,Aloleng,4,PH,1578359191,70,16.13,119.78,297.51,2.72
378,Maceio,0,BR,1578359191,83,-9.67,-35.74,298.15,2.1
379,Basoko,100,CD,1578359191,71,1.23,23.61,296.68,0.9
380,Melville,1,CA,1578359191,72,50.93,-102.81,265.37,12.3
381,Kazanka,75,UA,1578359191,73,47.83,32.83,270.15,3.0
382,Priyutnoye,100,RU,1578359191,10,46.1,43.51,265.93,4.02
383,Aktanysh,100,RU,1578359191,96,55.72,54.06,266.7,1.35
384,Ritchie,96,ZA,1578359191,60,-29.03,24.6,293.15,1.0
385,Bendigo,12,AU,1578359192,49,-36.76,144.28,302.59,4.13
386,Tarakan,100,ID,1578359192,87,3.3,117.63,298.24,2.66
387,Richards Bay,100,ZA,1578359109,84,-28.77,32.06,298.78,8.32
388,Cholet,90,FR,1578359192,100,47.06,-0.88,284.15,2.1
389,Luau,100,CD,1578359192,96,-10.7,22.23,292.51,0.89
390,Grants,1,US,1578359192,39,35.15,-107.85,272.15,3.6
391,Salinas,1,US,1578359132,67,36.67,-121.66,289.15,1.64
392,Elat,5,CM,1578359192,98,2.91,11.16,293.41,0.46
393,Loa Janan,100,ID,1578359192,81,-0.58,117.09,298.83,1.08
394,San Cristobal,94,HN,1578359193,88,14.68,-86.92,290.97,2.64
395,Porangatu,100,BR,1578359193,98,-13.44,-49.14,294.53,1.3
396,Sloboda,0,UA,1578359193,74,48.46,24.82,264.66,1.02
397,Adre,50,TD,1578359193,28,13.47,22.2,290.61,3.71
398,Den Helder,87,NL,1578359193,93,52.96,4.76,281.15,6.2
399,Uvira,92,CD,1578359193,86,-3.41,29.14,283.93,0.84
400,Nyurba,99,RU,1578359193,93,63.29,118.35,264.59,3.71
401,Eyrarbakki,57,IS,1578359193,69,63.86,-21.15,275.15,5.1
402,Arman,58,RU,1578359193,84,59.7,150.17,262.97,2.91
403,La Ronge,75,CA,1578359193,70,55.1,-105.3,252.15,8.2
404,Dejen,95,ET,1578359194,45,10.16,38.15,294.58,0.33
405,Bitam,44,GA,1578359194,96,2.08,11.49,293.95,1.03
406,Vagur,43,FO,1578359194,68,61.47,-6.81,280.44,14.49
407,Grindavik,75,IS,1578359148,86,63.84,-22.43,275.15,3.6
408,Meulaboh,70,ID,1578358924,82,4.14,96.13,299.96,4.24
409,Blagoyevo,100,RU,1578359194,94,63.37,47.92,261.99,3.33
410,Suileng,100,CN,1578359194,96,47.25,127.08,263.04,2.11
411,Sechura,20,PE,1578359194,88,-5.56,-80.82,295.3,6.74
412,Pedasi,71,PA,1578359194,77,7.53,-80.03,300.4,8.22
413,Beni Suef,0,EG,1578359195,58,29.07,31.1,282.03,4.63
414,Micomeseng,31,GQ,1578359195,99,2.15,10.62,294.52,0.63
415,Sale,21,AU,1578359195,83,-38.11,147.06,296.48,1.79
416,Vestmannaeyjar,91,IS,1578359195,63,63.44,-20.27,278.39,10.23
417,Selma,11,US,1578358935,93,32.41,-87.02,286.15,1.5
418,Talcahuano,0,CL,1578359195,63,-36.72,-73.12,290.15,6.2
419,Lumphat,0,KH,1578359195,86,13.5,106.97,293.58,1.58
420,Novobirilyussy,99,RU,1578359195,94,56.95,90.69,267.14,2.67
421,Palu,100,ID,1578359196,90,-0.9,119.87,295.13,0.48
422,Burns Lake,86,CA,1578358962,95,54.23,-125.76,261.89,0.34
423,San Jeronimo,88,PE,1578359196,93,-13.65,-73.37,284.82,2.47
424,Talara,28,PE,1578359196,91,-4.58,-81.27,295.42,4.73
425,Namatanai,86,PG,1578358926,71,-3.66,152.44,302.87,2.75
426,Abbeville,66,FR,1578359196,93,50.11,1.83,282.15,2.6
427,Yinchuan,100,CN,1578359196,68,38.48,106.21,266.97,0.96
428,Goundam,1,ML,1578359196,18,16.42,-3.66,289.94,4.27
429,Boo,23,NG,1578359197,25,7.44,8.9,297.04,2.83
430,Komsomolskiy,100,RU,1578359197,92,67.55,63.78,261.46,8.45
431,Revda,0,RU,1578359197,83,67.94,34.55,261.32,0.88
432,Santa Isabel,20,MX,1578359197,16,32.63,-115.58,295.15,2.79
433,Bull Savanna,36,JM,1578359197,92,17.89,-77.59,293.94,0.83
434,Kiama,40,AU,1578359197,57,-34.67,150.86,300.15,2.6
435,Newport Beach,1,US,1578359111,15,33.62,-117.93,298.15,4.1
436,Parana,18,BR,1578359197,74,-7.52,-72.89,298.96,1.07
437,Karpogory,100,RU,1578359198,94,64.0,44.44,266.56,3.57
438,Sharkan,11,RU,1578359198,88,57.3,53.87,269.82,0.65
439,Leningradskiy,0,RU,1578359198,78,69.38,178.42,249.93,4.95
440,Chulman,45,RU,1578359198,93,56.84,124.9,251.35,0.93
441,Hualmay,16,PE,1578358955,81,-11.1,-77.61,293.37,2.77
442,San Jose,75,HN,1578359196,77,14.25,-87.96,293.15,7.7
443,Smithers,5,CA,1578359198,92,54.78,-127.17,261.15,1.0
444,Kapuskasing,90,CA,1578359198,78,49.42,-82.43,260.15,3.6
445,Solnechnyy,0,RU,1578359198,75,50.72,136.64,256.29,0.74
446,Gazanjyk,77,TM,1578359198,73,39.24,55.52,275.5,1.18
447,Dolgoye,0,RU,1578359199,93,52.06,37.53,266.42,0.89
448,Ballina,51,IE,1578359199,89,54.11,-9.15,283.15,6.71
449,Harper,1,US,1578359199,27,30.3,-99.24,292.59,4.6
450,Camocim,79,BR,1578359199,87,-2.9,-40.84,298.03,1.65
451,Port Hardy,75,CA,1578359199,86,50.7,-127.42,278.15,5.1
452,Koumac,74,NC,1578359199,62,-20.56,164.28,299.98,2.49
453,Elmadag,75,TR,1578359199,69,39.92,33.23,276.48,2.6
454,Tazovskiy,0,RU,1578359199,93,67.47,78.7,255.63,5.88
455,Miraflores,75,PE,1578359200,87,-16.39,-71.52,286.15,6.7
456,Bathsheba,20,BB,1578359104,65,13.22,-59.52,299.15,7.2
457,Anshun,3,CN,1578359200,90,26.25,105.93,278.17,1.13
458,Rosetta,40,EG,1578359200,76,31.4,30.42,283.15,5.1
459,Mabaruma,41,GY,1578359200,90,8.2,-59.78,295.26,1.55
460,Ostrovnoy,50,RU,1578358929,96,68.05,39.51,260.42,2.2
461,Farah,0,AF,1578359200,63,32.37,62.11,279.24,2.17
462,Soe,90,EE,1578359200,100,57.91,26.05,275.37,3.6
463,Ganta,0,LR,1578359200,32,7.31,-8.54,293.36,0.68
464,Puerto Escondido,5,MX,1578359201,74,15.86,-97.07,300.15,0.46
465,Clyde River,90,CA,1578359098,75,70.47,-68.59,246.15,9.8
466,Kikerino,90,RU,1578359201,96,59.47,29.63,274.15,3.0
467,Inta,88,RU,1578359201,89,66.04,60.13,258.78,9.67
468,Kupang,75,ID,1578359201,83,-10.16,123.6,302.15,6.7
469,La Asuncion,41,AR,1578359201,91,-26.05,-65.39,287.45,1.29
470,Troitsko-Pechorsk,72,RU,1578359201,92,62.71,56.19,258.37,2.99
471,Moses Lake,1,US,1578359201,53,47.13,-119.28,284.82,4.6
472,Geraldton,20,CA,1578359201,77,49.72,-86.95,259.15,2.1
473,Elizabethtown,1,US,1578359202,41,40.15,-76.6,278.15,3.1
474,Tabou,0,CI,1578359202,70,4.42,-7.36,295.11,1.25
475,Ust-Kuyga,0,RU,1578359202,94,70.0,135.55,242.47,3.48
476,Bubaque,71,GW,1578358962,54,11.28,-15.83,298.89,4.33
477,Tete,20,MZ,1578359202,94,-16.16,33.59,298.15,1.0
478,Hervey Bay,40,AU,1578359202,48,-25.3,152.85,303.71,6.2
479,Namibe,99,AO,1578359202,85,-15.19,12.15,295.11,3.82
480,Aripuana,85,BR,1578359104,95,-9.17,-60.63,296.85,1.1
481,Punta Alta,7,AR,1578359202,88,-27.46,-55.82,298.15,2.6
482,Santo Antonio do Ica,59,BR,1578359203,78,-3.1,-67.94,299.42,1.35
483,Narsaq,0,GL,1578358837,36,60.91,-46.05,253.15,2.6
484,Mahon,75,IE,1578359203,87,51.89,-8.4,282.59,9.3
485,Moose Factory,1,CA,1578359203,84,51.26,-80.61,259.15,5.1
486,Muisne,4,EC,1578359203,83,0.61,-80.02,297.87,1.4
487,Constitucion,75,MX,1578358925,9,23.99,-104.67,293.15,2.1
488,Cabot,75,US,1578359203,81,34.97,-92.02,282.15,1.33
489,Oistins,20,BB,1578359203,65,13.07,-59.53,299.15,7.2
490,Pinega,100,RU,1578359203,94,64.7,43.39,267.35,3.96
491,Daru,97,PG,1578359203,75,-9.07,143.21,302.58,1.49
492,Koslan,100,RU,1578359204,94,63.46,48.9,261.55,3.47
493,Tucuman,72,PE,1578359204,83,-17.17,-70.89,287.0,3.04
494,Nadym,0,RU,1578359204,86,65.53,72.51,257.73,7.28
495,Belaya Gora,0,RU,1578359204,96,68.54,146.19,243.63,1.23
496,Uvalde,1,US,1578359169,42,29.21,-99.79,294.15,3.32
497,Jaypur,0,IN,1578359204,57,23.05,87.44,286.87,2.29
498,Pocone,99,BR,1578359204,72,-16.26,-56.62,300.45,3.31
499,Turangi,70,NZ,1578359205,38,-39.0,175.93,290.03,0.66
500,Dubovka,100,RU,1578359205,92,49.06,44.83,271.15,3.0
501,Tacuati,63,PY,1578359205,90,-23.46,-56.74,296.76,1.4
502,Lapa,20,BR,1578359205,83,-25.77,-49.72,296.15,2.1
503,Conde,67,BR,1578359205,80,-11.81,-37.61,300.34,6.2
504,Hambantota,20,LK,1578359205,100,6.12,81.12,296.15,2.1
505,Mount Isa,100,AU,1578359205,34,-20.73,139.49,308.15,2.1
506,Whitehorse,75,CA,1578359143,83,60.72,-135.06,250.37,1.5
507,Khorramshahr,0,IR,1578359206,87,30.43,48.18,286.15,2.1
508,La Venta del Astillero,40,MX,1578359206,17,20.73,-103.55,295.15,3.1
509,Yatou,20,CM,1578359206,94,3.63,9.81,299.15,1.16
510,Mora,0,PT,1578359206,100,38.94,-8.17,278.15,0.89
511,Mazagao,75,BR,1578359206,100,-0.12,-51.29,299.15,2.1
512,Charleston,1,US,1578358853,87,32.79,-79.94,284.82,0.65
513,Golkoy,75,TR,1578359206,87,40.69,37.62,280.15,1.0
514,Chernyshevskiy,100,RU,1578359206,92,63.01,112.47,263.82,4.43
515,Mogadishu,43,SO,1578359164,84,2.04,45.34,300.42,9.73
516,Tezu,61,IN,1578359206,66,27.93,96.16,282.65,1.13
517,Kailua,75,US,1578359207,61,21.39,-157.74,301.15,6.7
518,Itarema,61,BR,1578359207,87,-2.92,-39.92,298.29,1.81
519,Taltal,2,CL,1578359207,82,-25.41,-70.49,290.18,1.29
520,Ati,0,TD,1578359207,20,13.21,18.34,293.26,4.33
521,Padang,91,ID,1578359207,88,-0.92,100.36,293.82,2.22
522,Hami,1,CN,1578359207,51,42.84,93.51,264.62,0.33
523,Hatillo,90,PR,1578359207,87,18.49,-66.83,297.04,5.1
524,Mirnyy,94,RU,1578359207,86,56.57,36.46,269.22,3.29
525,Aswan,0,EG,1578359208,45,24.09,32.9,281.15,4.1
526,Brae,18,GB,1578359208,87,60.4,-1.35,281.15,7.7
527,Swan Hill,0,AU,1578359208,40,-35.34,143.56,300.37,3.13
528,Dukat,0,AL,1578359208,38,40.25,19.57,277.59,1.27
529,Ahuimanu,75,US,1578359208,61,21.44,-157.84,301.15,6.7
530,Muhos,90,FI,1578359208,100,64.81,26.0,274.26,2.6
531,Noumea,20,NC,1578359133,48,-22.28,166.46,304.15,6.7
532,Polunochnoye,0,RU,1578359208,88,60.87,60.43,257.83,1.66
533,Miranda,78,BR,1578359208,74,-20.24,-56.38,300.27,0.6
534,Petropavlovsk-Kamchatskiy,100,RU,1578359208,46,53.05,158.65,271.15,8.0
535,Am Timan,64,TD,1578359209,30,11.04,20.28,294.48,1.95
536,Vidim,4,CZ,1578359209,92,50.47,14.53,273.15,1.0
537,Deder,34,ET,1578359209,81,9.31,41.44,291.18,1.05
538,San Andres,26,PH,1578359209,83,13.32,122.68,298.58,4.53
539,Ginir,17,ET,1578359209,69,7.14,40.71,289.95,1.85
540,Mao,20,DO,1578359209,88,19.55,-71.08,297.15,2.6
541,Bend,40,US,1578359149,70,44.06,-121.32,282.04,7.2
542,Mocoa,41,CO,1578359209,92,1.15,-76.65,295.93,1.76
543,Yamada,75,JP,1578359210,56,36.58,137.08,280.37,1.5
544,Owando,61,CG,1578359210,49,-0.49,15.91,296.78,0.8
545,Hamilton,40,CA,1578359098,75,43.26,-79.87,276.15,5.7
546,Huarmey,15,PE,1578359210,80,-10.07,-78.15,293.53,1.99
547,Karaton,75,ID,1578359210,88,-6.34,106.1,301.48,3.6
548,Santiago,43,PH,1578359087,91,16.69,121.54,294.7,0.66
549,Muros,20,ES,1578359210,100,42.77,-9.06,281.48,2.1
550,Pinsk,91,BY,1578359211,95,52.11,26.1,270.77,2.37
551,Razdolnoye,80,RU,1578359211,94,43.7,44.53,274.32,1.41
552,Leicester,7,GB,1578359111,86,52.64,-1.13,279.82,5.1
553,Eagle Pass,1,MX,1578359211,38,28.71,-100.5,294.15,2.9
554,San Pedro,17,AR,1578359211,61,-33.68,-59.66,291.48,0.45
555,Jadu,80,LY,1578359211,78,31.95,12.03,281.99,2.55
