,City,Cloudiness,Country,Date,Humidity,Lat,Lng,Max Temp,Wind Speed
0,Baoshan,91,CN,1578290765,56,31.41,121.49,298.71,4.0
1,Cidreira,0,BR,1578290765,86,-30.17,-50.22,296.82,10.17
2,Vestmannaeyjar,96,IS,1578290765,81,63.44,-20.27,280.78,9.05
3,Khatanga,98,RU,1578290765,96,71.98,102.47,257.3,3.22
4,Hilo,90,US,1578290765,65,19.71,-155.08,299.15,3.6
5,Nikolskoye,75,RU,1578290766,79,59.7,30.79,271.15,5.0
6,Thompson,90,CA,1578290563,84,55.74,-97.86,258.15,4.1
7,Hobart,40,AU,1578290668,52,-42.88,147.33,295.93,8.2
8,Yellowknife,5,CA,1578290709,75,62.45,-114.38,245.37,3.1
9,Rikitea,32,PF,1578290766,75,-23.12,-134.97,297.74,6.77
10,Nome,1,US,1578290767,93,30.04,-94.42,288.71,2.6
11,Carnarvon,84,ZA,1578290767,58,-30.97,22.13,293.49,1.86
12,Lorengau,70,PG,1578290767,70,-2.02,147.27,302.9,4.05
13,Luleburgaz,75,TR,1578290763,86,41.4,27.36,276.15,13.9
14,East London,20,ZA,1578290767,88,-33.02,27.91,294.15,2.1
15,Sioux Lookout,90,CA,1578290767,67,50.1,-91.92,265.15,6.2
16,Port Augusta,14,AU,1578290767,60,-32.49,137.76,298.15,4.6
17,Saint George,75,GR,1578290767,38,39.45,22.34,279.15,7.2
18,Barrow,100,AR,1578290767,86,-38.31,-60.23,290.15,5.45
19,Hithadhoo,100,MV,1578290768,74,-0.6,73.08,302.08,6.29
20,San Luis de la Paz,0,MX,1578290768,30,21.3,-100.52,280.37,0.45
21,Jamestown,84,AU,1578290768,49,-33.21,138.6,297.49,3.1
22,Hamilton,90,CA,1578290768,97,43.26,-79.87,275.15,5.7
23,Kavieng,32,PG,1578290537,69,-2.57,150.8,303.13,4.26
24,Boa Vista,20,BR,1578290768,65,2.82,-60.67,300.15,3.1
25,Lebu,21,ET,1578290768,68,8.96,38.73,287.78,1.87
26,Sao Filipe,53,CV,1578290768,66,14.9,-24.5,293.58,9.01
27,Faanui,37,PF,1578290769,77,-16.48,-151.75,300.82,6.03
28,Husavik,14,CA,1578290769,89,50.56,-96.99,261.48,2.26
29,Mataura,100,NZ,1578290769,92,-46.19,168.86,282.59,9.83
30,Coihaique,40,CL,1578290769,66,-45.58,-72.07,283.15,1.0
31,Mar del Plata,49,AR,1578290769,43,-46.43,-67.52,285.72,8.62
32,Cayenne,75,GF,1578290577,94,4.94,-52.33,297.15,1.0
33,Pangai,75,TO,1578290769,74,-19.8,-174.35,301.15,4.1
34,Ponta do Sol,1,BR,1578290499,95,-20.63,-46.0,291.67,1.15
35,Kaitangata,100,NZ,1578290770,78,-46.28,169.85,283.71,6.26
36,Albany,75,US,1578290488,73,42.65,-73.75,270.93,1.24
37,Nuuk,100,GL,1578290770,84,64.17,-51.74,257.15,8.7
38,San Patricio,0,PY,1578290770,60,-26.98,-56.83,297.78,3.6
39,Iracoubo,12,GF,1578290770,78,5.48,-53.21,299.24,4.85
40,Kawalu,76,ID,1578290770,70,-7.38,108.21,301.31,3.36
41,Mahebourg,100,MU,1578290770,85,-20.41,57.7,299.26,3.13
42,Debre Tabor,91,ET,1578290770,61,11.86,38.01,290.84,1.81
43,Souillac,0,FR,1578290545,88,45.6,-0.6,275.37,1.5
44,Mao,40,DO,1578290771,94,19.55,-71.08,296.15,0.53
45,Ushuaia,75,AR,1578290771,75,-54.81,-68.31,280.15,9.3
46,Chuy,1,UY,1578290542,86,-33.69,-53.46,294.37,5.42
47,Price,1,US,1578290771,73,39.6,-110.81,268.71,3.03
48,Hare Bay,90,CA,1578290771,92,48.86,-53.99,269.15,11.3
49,Neuquen,0,AR,1578290771,41,-38.95,-68.06,289.15,8.2
50,Bethel,1,US,1578290772,75,60.79,-161.76,246.15,3.6
51,Kapaa,75,US,1578290772,83,22.08,-159.32,297.15,7.7
52,Cabo San Lucas,40,MX,1578290586,77,22.89,-109.91,293.71,3.1
53,Cape Town,20,ZA,1578290772,63,-33.93,18.42,292.04,3.1
54,Ankang,100,CN,1578290772,97,32.73,108.99,273.75,1.01
55,Chicama,75,PE,1578290772,88,-7.84,-79.15,294.15,3.6
56,Norman Wells,20,CA,1578290773,65,65.28,-126.83,233.15,1.5
57,Provideniya,49,RU,1578290773,72,64.42,-173.23,248.86,3.14
58,Nyurba,98,RU,1578290773,95,63.29,118.35,260.92,2.62
59,Joshimath,96,IN,1578290773,38,30.57,79.57,277.96,0.38
60,Vila Franca do Campo,40,PT,1578290773,93,37.72,-25.43,291.15,8.2
61,Beidao,88,CN,1578290773,57,34.57,105.89,274.36,2.74
62,Satao,0,PT,1578290773,94,40.74,-7.73,276.48,0.45
63,Indramayu,5,ID,1578290773,55,-4.05,103.78,304.74,3.68
64,Punta Arenas,75,CL,1578290773,75,-53.16,-70.91,281.15,3.1
65,Lyubytino,100,RU,1578290774,86,58.81,33.39,269.3,4.1
66,Upernavik,94,GL,1578290774,98,72.79,-56.15,238.34,7.16
67,Meridian,50,US,1578290774,100,43.61,-116.39,273.71,4.22
68,Saint-Philippe,40,CA,1578290774,92,45.36,-73.48,264.26,0.75
69,Vaini,75,IN,1578290774,73,15.34,74.49,296.15,4.1
70,Cockburn Town,26,TC,1578290774,73,21.46,-71.14,298.15,3.05
71,Bluff,87,AU,1578290774,46,-23.58,149.07,303.98,6.78
72,Komsomolskiy,100,RU,1578290774,94,67.55,63.78,259.52,7.88
73,Jumla,29,NP,1578290774,19,29.28,82.18,281.9,1.53
74,Vagur,100,FO,1578290775,84,61.47,-6.81,282.54,19.77
75,Hermanus,100,ZA,1578290775,76,-34.42,19.24,292.04,3.04
76,Busselton,32,AU,1578290775,10,-33.64,115.35,305.93,5.21
77,Batticaloa,3,LK,1578290775,68,7.71,81.69,302.55,4.85
78,Rocha,0,UY,1578290546,94,-34.48,-54.34,291.2,5.14
79,Puerto Ayora,3,EC,1578290775,81,-0.74,-90.35,297.59,2.68
80,Hervey Bay,40,AU,1578290775,54,-25.3,152.85,302.15,7.2
81,Port Hardy,75,CA,1578290775,100,50.7,-127.42,274.15,2.1
82,Bredasdorp,100,ZA,1578290776,63,-34.53,20.04,292.15,2.1
83,Narsaq,55,GL,1578290776,52,60.91,-46.05,266.15,6.2
84,New Norfolk,40,AU,1578290776,52,-42.78,147.06,295.93,8.2
85,Tuktoyaktuk,20,CA,1578290776,74,69.44,-133.03,241.15,2.6
86,Atuona,79,PF,1578290776,77,-9.8,-139.03,299.69,5.34
87,Mogadishu,75,SO,1578290777,69,2.04,45.34,301.15,4.1
88,Pareora,1,NZ,1578290777,44,-44.49,171.21,289.26,1.34
89,Umm Lajj,0,SA,1578290777,27,25.02,37.27,288.59,0.68
90,Lasa,40,CY,1578290777,67,34.92,32.53,290.15,7.2
91,Sitka,0,US,1578290777,62,37.17,-99.65,271.48,1.34
92,Ribeira Grande,100,PT,1578290777,93,38.52,-28.7,288.53,6.91
93,Fairbanks,100,US,1578290777,74,64.84,-147.72,245.93,0.78
94,Beinamar,20,TD,1578290778,33,8.67,15.38,290.53,1.13
95,Vozrozhdeniye,90,RU,1578290778,100,60.86,28.96,272.59,3.6
96,Leningradskiy,0,RU,1578290778,64,69.38,178.42,250.52,1.53
97,Grindavik,90,IS,1578290778,98,63.84,-22.43,276.15,11.8
98,San Andres,47,PH,1578290558,69,13.32,122.68,301.1,6.09
99,Sechura,0,PE,1578290778,88,-5.56,-80.82,294.82,1.88
100,Fairview,75,CA,1578290779,72,56.07,-118.38,262.59,6.2
101,Mizan Teferi,5,ET,1578290779,69,6.99,35.58,294.99,0.35
102,Havre-Saint-Pierre,1,CA,1578290779,66,50.23,-63.6,262.15,4.1
103,Kunming,40,CN,1578290779,67,25.04,102.71,288.71,11.0
104,Iqaluit,75,CA,1578290779,62,63.75,-68.52,247.15,6.2
105,Lubango,75,AO,1578290779,83,-14.92,13.49,290.15,6.2
106,Svetlogorsk,90,RU,1578290779,92,53.14,59.15,270.15,4.0
107,Vung Tau,33,VN,1578290487,46,10.35,107.08,304.94,0.46
108,Kloulklubed,75,PW,1578290780,79,7.04,134.26,302.15,7.7
109,Comodoro Rivadavia,78,AR,1578290780,62,-45.87,-67.48,288.15,2.1
110,Grindsted,97,DK,1578290780,100,55.76,8.93,281.48,3.6
111,Haines Junction,98,CA,1578290780,99,60.75,-137.51,252.79,0.83
112,Port Alfred,99,ZA,1578290780,91,-33.59,26.89,294.26,0.89
113,Lac du Bonnet,0,CA,1578290780,89,50.25,-96.06,261.48,2.35
114,Peniche,0,PT,1578290780,100,39.36,-9.38,281.48,1.29
115,Kholmogory,40,RU,1578290781,92,64.23,41.65,265.15,2.0
116,Lagoa,0,PT,1578290781,87,37.14,-8.45,283.71,3.1
117,Bambous Virieux,99,MU,1578290781,85,-20.34,57.76,299.26,3.13
118,Marawi,34,PH,1578290781,79,8.0,124.29,301.48,3.13
119,Abalak,29,NE,1578290781,27,15.46,6.28,286.18,5.58
120,Georgetown,0,GY,1578290782,71,6.8,-58.16,298.94,4.74
121,Madang,97,CN,1578290782,72,35.32,102.79,267.92,2.57
122,Ayr,1,AU,1578290782,70,-19.58,147.4,302.59,4.02
123,Bilibino,0,RU,1578290782,69,68.06,166.44,248.43,1.24
124,Saldanha,0,PT,1578290782,87,41.42,-6.55,274.06,0.13
125,Le Havre,0,FR,1578290600,86,49.49,0.11,277.15,3.1
126,Harper,1,US,1578290783,64,30.3,-99.24,284.26,1.5
127,Abu Samrah,89,SY,1578290783,85,35.3,37.18,280.01,6.69
128,Castro,45,CL,1578290546,93,-42.48,-73.76,282.15,1.5
129,Udachnyy,100,RU,1578290783,84,66.42,112.4,257.15,3.0
130,Afzalpur,21,IN,1578290783,53,17.2,76.36,299.33,6.17
131,Mehamn,93,NO,1578290783,72,71.03,27.85,265.15,6.7
132,Blyth,75,GB,1578290783,75,55.12,-1.5,281.48,6.2
133,Poum,20,MK,1578290783,46,41.28,20.71,271.15,5.1
134,Emerald,75,AU,1578290355,38,-23.53,148.16,306.15,5.7
135,Brigantine,90,US,1578290783,86,39.41,-74.36,276.48,1.5
136,Huarmey,69,PE,1578290784,77,-10.07,-78.15,293.7,0.91
137,Saskylakh,100,RU,1578290784,93,71.97,114.09,246.77,6.06
138,Lichinga,75,MZ,1578290661,93,-13.3,35.25,292.15,3.1
139,Sola,58,TZ,1578290784,74,-3.17,33.8,294.47,0.57
140,Avarua,100,CK,1578290784,94,-21.21,-159.78,299.15,1.5
141,Bandarbeyla,95,SO,1578290784,77,9.49,50.81,299.56,3.76
142,Meulaboh,14,ID,1578290784,71,4.14,96.13,301.18,2.37
143,Nanortalik,67,GL,1578290784,80,60.14,-45.24,266.54,17.73
144,Guanica,11,PR,1578290784,64,17.97,-66.91,297.59,3.58
145,El Alto,75,BO,1578290785,75,-16.5,-68.19,280.15,1.0
146,Vila Velha,40,BR,1578290785,78,-3.71,-38.6,303.15,2.6
147,Qaanaaq,79,GL,1578290785,56,77.48,-69.36,244.39,2.22
148,Alanya,75,TR,1578290785,81,36.55,32.0,284.15,5.7
149,Kupang,75,ID,1578290785,74,-10.16,123.6,303.15,6.7
150,Hofn,100,IS,1578290785,94,64.25,-15.21,280.18,5.92
151,Westport,90,US,1578290545,55,41.14,-73.36,276.15,3.1
152,Ixtapa,5,MX,1578290785,68,20.71,-105.21,291.48,2.1
153,Alta Floresta,100,BR,1578290785,98,-9.87,-56.08,293.49,1.13
154,Smithers,40,CA,1578290786,79,54.78,-127.17,268.15,2.1
155,Kruisfontein,97,ZA,1578290786,79,-34.0,24.73,293.45,2.63
156,Portland,1,US,1578290495,62,43.66,-70.25,267.59,2.6
157,Kulhudhuffushi,60,MV,1578290786,77,6.62,73.07,301.33,6.6
158,Raudeberg,75,NO,1578290786,93,61.99,5.14,282.59,6.7
159,Butaritari,100,KI,1578290786,77,3.07,172.79,302.74,8.91
160,Saint-Joseph,0,FR,1578290786,86,43.56,6.97,282.59,3.1
161,Katsuura,75,JP,1578290786,46,33.93,134.5,285.93,5.7
162,Nara,75,JP,1578290786,49,34.68,135.8,285.37,1.0
163,La Palma,75,CO,1578290787,96,5.36,-74.39,292.35,0.98
164,Necochea,100,AR,1578290787,92,-38.55,-58.74,288.93,4.51
165,Salou,9,ES,1578290787,100,41.08,1.14,280.93,2.6
166,Victor Harbor,0,AU,1578290787,44,-35.55,138.62,299.82,7.2
167,Eydhafushi,38,MV,1578290788,78,5.1,73.07,301.11,6.67
168,Chandbali,0,IN,1578290788,36,20.77,86.74,296.92,4.05
169,Mangrol,24,IN,1578290789,33,25.33,76.51,294.64,2.85
170,Ancud,0,CL,1578290789,93,-41.87,-73.83,282.15,1.5
171,Port Elizabeth,90,US,1578290789,69,39.31,-74.98,275.93,1.5
172,Sinnamary,12,GF,1578290789,78,5.38,-52.96,299.24,4.85
173,Antofagasta,31,CL,1578290789,68,-23.65,-70.4,293.15,1.5
174,Freeport,31,BS,1578290782,63,26.54,-78.7,292.82,6.02
175,Torbat-e Jam,97,IR,1578290790,84,35.24,60.63,275.95,1.83
176,Belomorsk,89,RU,1578290790,71,64.52,34.76,268.24,7.03
177,Mayo,20,CA,1578290790,66,63.59,-135.9,238.15,1.0
178,Pangani,4,KE,1578290790,71,-2.37,40.57,302.28,2.1
179,Dikson,100,RU,1578290791,93,73.51,80.55,264.38,8.53
180,Nantucket,1,US,1578290649,58,41.28,-70.1,273.71,1.5
181,Rosetown,15,CA,1578290791,84,51.55,-107.99,267.59,1.34
182,Arraial do Cabo,99,BR,1578290791,87,-22.97,-42.02,297.65,2.88
183,Lhokseumawe,15,ID,1578290792,63,5.18,97.15,301.72,2.75
184,Inhambane,20,MZ,1578290792,70,-23.87,35.38,303.15,3.1
185,Chokurdakh,22,RU,1578290792,99,70.62,147.9,245.34,0.97
186,Mayor Pablo Lagerenza,92,PY,1578290792,58,-19.93,-60.77,300.75,5.06
187,Shingu,40,JP,1578290713,34,33.72,135.99,284.15,1.5
188,Progreso,17,UY,1578290792,63,-34.68,-56.22,295.37,3.58
189,Hasaki,75,JP,1578290792,43,35.73,140.83,285.37,5.1
190,Marovoay,20,MG,1578290793,79,-16.11,46.64,302.15,2.6
191,Kodiak,1,US,1578290793,79,39.95,-94.76,274.26,3.1
192,Cap Malheureux,100,MU,1578290793,85,-19.98,57.61,299.26,3.13
193,Khandyga,100,RU,1578290793,97,62.65,135.58,254.07,1.69
194,Russell,1,US,1578290793,63,38.9,-98.86,272.15,3.1
195,Erdenet,0,MN,1578290794,84,49.03,104.04,258.7,1.77
196,Cherskiy,0,RU,1578290794,63,68.75,161.3,249.14,1.51
197,Ilulissat,100,GL,1578290555,77,69.22,-51.1,259.15,8.2
198,Araouane,0,ML,1578290795,20,18.9,-3.53,284.67,4.56
199,Severo-Kurilsk,99,RU,1578290796,93,50.68,156.12,267.52,2.7
200,Ailigandi,24,PA,1578290796,98,9.23,-78.02,295.7,1.92
201,Sorland,75,NO,1578290796,75,67.67,12.69,278.15,3.1
202,Tiksi,7,RU,1578290796,84,71.64,128.87,249.25,5.96
203,Saint-Louis,12,SN,1578290796,33,16.03,-16.5,290.15,3.1
204,Gohad,0,IN,1578290796,45,26.42,78.44,293.46,1.5
205,Luderitz,0,NA,1578290797,83,-26.65,15.16,290.36,9.1
206,Itarema,71,BR,1578290797,94,-2.92,-39.92,298.15,1.0
207,Osijek,0,HR,1578290797,85,45.55,18.69,270.15,3.6
208,Pinawa,0,CA,1578290797,94,50.15,-95.88,260.52,2.35
209,Uige,96,AO,1578290797,94,-7.61,15.06,294.07,0.83
210,Grand-Lahou,0,CI,1578290797,60,5.24,-5.0,299.67,1.37
211,Longyearbyen,20,NO,1578290797,55,78.22,15.63,259.15,5.7
212,Almeria,1,ES,1578290753,75,36.84,-2.46,281.15,4.1
213,Isangel,40,VU,1578290798,55,-19.55,169.27,304.15,5.1
214,San Cristobal,85,HN,1578290798,93,14.68,-86.92,288.77,1.84
215,Sokolo,56,ML,1578290798,28,14.74,-6.12,285.99,4.49
216,Victoria,75,BN,1578290798,74,5.28,115.24,306.15,4.6
217,Arman,9,RU,1578290798,67,59.7,150.17,264.34,3.86
218,Umkomaas,83,ZA,1578290799,88,-30.21,30.8,297.59,3.5
219,Quatre Cocos,100,MU,1578290542,85,-20.21,57.76,299.26,2.68
220,Half Moon Bay,1,US,1578290799,87,37.46,-122.43,284.15,2.1
221,Naze,3,NG,1578290799,94,5.43,7.07,294.15,1.15
222,Llanes,0,ES,1578290799,10,43.42,-4.75,280.93,5.16
223,Inirida,0,CO,1578290799,69,3.87,-67.92,294.7,1.85
224,Orzhytsya,36,UA,1578290799,94,49.79,32.7,270.48,3.25
225,Dicabisagan,4,PH,1578290799,71,17.08,122.42,299.01,4.42
226,Tigil,0,RU,1578290800,72,57.8,158.67,258.32,1.62
227,Biak,100,ID,1578290800,77,-0.91,122.88,299.34,3.35
228,Atar,15,MR,1578290800,28,20.52,-13.05,283.05,3.15
229,Altamira,85,BR,1578290800,98,-3.2,-52.21,295.44,1.07
230,Coquimbo,0,CL,1578290800,77,-29.95,-71.34,289.15,3.1
231,Roros,69,NO,1578290800,92,62.57,11.38,264.15,1.5
232,Antalaha,78,MG,1578290801,76,-14.9,50.28,300.06,2.35
233,Coari,26,BR,1578290801,82,-4.09,-63.14,297.28,0.27
234,Axim,71,GH,1578290801,65,4.87,-2.24,294.92,0.94
235,Oranjemund,7,ZA,1578290801,71,-28.55,16.43,291.71,3.26
236,Pisco,68,PE,1578290801,88,-13.71,-76.2,293.15,6.2
237,Vestmanna,100,FO,1578290801,93,62.16,-7.17,282.15,10.8
238,Hearst,100,CA,1578290357,94,49.69,-83.67,266.28,4.28
239,Teya,5,MX,1578290801,82,21.05,-89.07,294.26,1.44
240,Kenai,90,US,1578290801,83,60.55,-151.26,255.37,1.5
241,Nhulunbuy,40,AU,1578290802,59,-12.18,136.78,306.15,5.7
242,Tarjan,75,IQ,1578290802,100,36.12,43.76,280.15,1.5
243,Ambanja,75,MG,1578290802,94,-13.68,48.45,301.15,1.0
244,Dunkirk,75,FR,1578290802,81,51.03,2.38,279.26,3.1
245,Mbandaka,44,CD,1578290802,70,0.05,18.26,295.65,1.08
246,Deputatskiy,79,RU,1578290803,74,69.3,139.9,245.91,0.46
247,Naryan-Mar,96,RU,1578290803,85,67.67,53.09,264.44,5.82
248,Esperance,0,AU,1578290803,9,-33.86,121.89,309.15,3.1
249,Udala,0,ES,1578290803,100,43.08,-2.51,277.15,2.6
250,Izyum,100,UA,1578290803,91,49.21,37.25,270.85,2.74
251,Hambantota,20,LK,1578290804,83,6.12,81.12,302.15,5.7
252,Kapiri Mposhi,100,ZM,1578290804,94,-13.97,28.68,291.52,1.96
253,Chippewa Falls,1,US,1578290804,67,44.94,-91.39,271.15,4.6
254,Panzhihua,0,CN,1578290804,70,26.59,101.72,287.59,6.71
255,Parrita,40,CR,1578290804,73,9.52,-84.33,295.15,3.6
256,Clarence Town,75,AU,1578290804,78,-32.59,151.78,297.59,6.7
257,Adelaide,0,AU,1578290630,44,-34.93,138.6,299.82,7.2
258,Cedar City,1,US,1578290805,85,37.68,-113.06,269.15,2.6
259,Brigham City,90,US,1578290805,69,41.51,-112.02,274.82,3.6
260,Nouadhibou,49,MR,1578290805,41,20.93,-17.03,290.31,7.28
261,Mizdah,12,LY,1578290806,67,31.45,12.98,280.47,6.8
262,Gamba,38,CN,1578290806,10,28.28,88.52,264.22,1.59
263,Clyde River,1,CA,1578290806,58,70.47,-68.59,233.15,7.7
264,Tuatapere,100,NZ,1578290806,92,-46.13,167.69,282.59,9.83
265,Petropavlovsk-Kamchatskiy,40,RU,1578290527,82,53.05,158.65,273.15,9.0
266,Zambezi,93,ZM,1578290807,85,-13.55,23.12,294.57,1.4
267,Chumikan,0,RU,1578290807,87,54.72,135.31,256.59,1.34
268,Burnie,0,AU,1578290807,46,-41.05,145.91,292.59,5.36
269,Nalut,59,LY,1578290808,86,31.86,10.98,281.97,4.02
270,Kokkarion,75,GR,1578290808,93,37.78,26.89,280.15,5.7
271,Port Lavaca,1,US,1578290808,93,28.61,-96.63,288.71,2.6
272,Pacific Grove,1,US,1578290808,87,36.62,-121.92,285.37,5.83
273,Sharan,100,AF,1578290808,94,33.15,68.78,269.28,2.76
274,Irbeyskoye,100,RU,1578290808,79,55.64,95.45,272.01,1.46
275,Tautira,40,PF,1578290809,83,-17.73,-149.15,300.15,1.0
276,Stolin,77,BY,1578290809,88,51.89,26.85,270.32,2.29
277,Manoel Urbano,100,BR,1578290809,88,-8.84,-69.26,295.72,0.72
278,Viransehir,75,TR,1578290809,88,37.24,39.76,278.89,4.12
279,Pevek,0,RU,1578290809,79,69.7,170.27,251.38,2.3
280,Sevierville,1,US,1578290763,92,35.87,-83.56,279.82,3.7
281,Yebaishou,67,CN,1578290810,79,41.4,119.64,272.59,1.8
282,Flinders,100,AU,1578290810,77,-34.58,150.85,295.37,6.7
283,Mezen,47,RU,1578290810,88,65.85,44.24,266.18,5.17
284,Alice Springs,75,AU,1578290810,47,-23.7,133.88,298.15,2.6
285,Verkhnevilyuysk,93,RU,1578290810,97,63.45,120.31,256.26,1.6
286,San Antonio,0,CL,1578290766,87,-33.58,-71.61,284.15,2.1
287,Waingapu,69,ID,1578290810,75,-9.65,120.26,302.46,11.19
288,Deqing,9,CN,1578290811,60,30.54,119.97,298.71,3.0
289,Jacareacanga,86,BR,1578290511,99,-6.22,-57.76,294.86,0.89
290,Floro,75,NO,1578290557,93,61.6,5.03,282.59,8.7
291,Saraland,1,US,1578290811,87,30.82,-88.07,280.37,1.5
292,Shache,93,CN,1578290811,94,38.42,77.24,272.04,0.63
293,Dafeng,100,CN,1578290811,93,33.2,120.46,284.64,2.62
294,Ayan,75,IR,1578290812,86,38.23,44.7,271.15,1.0
295,Tchibanga,65,GA,1578290812,94,-2.92,11.0,296.52,0.9
296,Coos Bay,90,US,1578290812,93,43.37,-124.22,282.04,3.6
297,Mackay,90,CA,1578290362,54,53.65,-115.58,271.15,6.2
298,Tasiilaq,100,GL,1578290812,90,65.61,-37.64,266.01,16.61
299,Victoria,75,BN,1578290798,74,5.28,115.24,306.15,4.6
300,Kargil,100,PK,1578290813,90,34.56,76.13,257.8,1.42
301,Akdepe,90,TM,1578290813,73,42.05,59.39,270.15,2.1
302,Wajir,90,KE,1578290813,74,1.75,40.07,299.15,4.1
303,Maceio,91,BR,1578290813,94,-9.67,-35.74,296.15,1.5
304,Torbay,90,CA,1578290799,100,47.66,-52.73,272.59,13.9
305,Atasu,0,KZ,1578290813,75,48.68,71.64,265.87,2.73
306,Boralday,90,KZ,1578290813,92,43.36,76.86,264.15,1.0
307,Saint Anthony,90,US,1578290813,85,43.97,-111.68,269.82,8.2
308,Dubrovka,75,RU,1578290814,79,59.85,30.93,271.15,5.0
309,Holme,100,DK,1578290814,100,56.11,10.17,281.15,3.6
310,Kavaratti,20,IN,1578290814,58,10.57,72.64,302.15,2.1
311,Srinivaspur,75,IN,1578290814,78,13.34,78.21,298.15,5.1
312,Zhigansk,99,RU,1578290814,94,66.77,123.37,248.99,8.06
313,Talara,0,PE,1578290814,92,-4.58,-81.27,295.0,4.64
314,Mabaruma,0,GY,1578290814,98,8.2,-59.78,292.68,0.26
315,Nemuro,75,JP,1578290814,68,43.32,145.57,270.15,9.3
316,Bintulu,75,MY,1578290814,79,3.17,113.03,304.15,2.6
317,Port Hedland,75,AU,1578290814,29,-20.31,118.58,311.15,8.7
318,Evensk,3,RU,1578290815,46,61.92,159.24,253.07,2.19
319,Nola,9,CF,1578290815,43,3.52,16.05,292.56,0.89
320,Hirado,90,JP,1578290815,82,33.32,129.49,287.15,2.1
321,Roald,75,NO,1578290815,81,62.58,6.12,282.59,6.2
322,Sahuaripa,33,MX,1578290815,46,29.05,-109.23,283.82,2.41
323,Fortuna,90,US,1578290815,100,40.6,-124.16,278.71,3.6
324,Malanje,100,AO,1578290816,96,-9.54,16.35,292.24,0.78
325,Saint-Augustin,20,CA,1578290816,78,45.63,-73.98,264.26,1.0
326,Mackenzie,90,CA,1578290816,68,55.34,-123.09,269.15,3.6
327,Beringovskiy,97,RU,1578290816,80,63.05,179.32,251.64,6.22
328,Katangli,100,RU,1578290816,92,51.71,143.23,267.32,4.6
329,Galesong,40,ID,1578290816,88,-5.32,119.37,300.15,3.1
330,Media Luna,61,BO,1578290816,85,-21.67,-64.63,286.66,1.11
331,Itoman,40,JP,1578290817,49,26.12,127.67,296.15,4.6
332,Tripoli,100,GR,1578290817,42,37.51,22.37,282.15,5.1
333,Atikokan,100,CA,1578290817,86,48.76,-91.62,262.0,5.64
334,Dunedin,85,NZ,1578290579,87,-45.87,170.5,282.46,18.15
335,Honningsvag,97,NO,1578290817,75,70.98,25.97,270.03,5.23
336,Saquena,8,PE,1578290817,76,-4.67,-73.52,295.34,1.01
337,Samagaltay,19,RU,1578290817,94,50.6,95.0,252.36,1.02
338,Praia,75,BR,1578290817,83,-20.25,-43.81,295.15,2.99
339,Macia,24,MZ,1578290818,54,-25.03,33.09,303.29,1.15
340,Donskoye,52,RU,1578290818,58,45.45,41.98,272.15,2.0
341,Ocos,5,GT,1578290818,88,14.51,-92.19,296.15,2.12
342,Nortelandia,100,BR,1578290818,95,-14.45,-56.8,295.46,3.64
343,Lodja,100,CD,1578290818,94,-3.52,23.6,294.73,0.65
344,Grootfontein,75,NA,1578290818,100,-19.56,18.1,291.15,1.5
345,Chhatak,0,BD,1578290818,49,25.03,91.67,294.48,2.58
346,Barcelos,68,BR,1578290765,90,-0.97,-62.93,296.66,0.77
347,Airai,100,TL,1578290818,54,-8.93,125.41,300.23,2.06
348,Dingzhou,71,CN,1578290819,89,38.51,115.0,273.15,1.0
349,Keetmanshoop,0,NA,1578290819,32,-26.57,18.15,294.15,0.5
350,Marystown,100,CA,1578290819,91,47.17,-55.16,272.32,20.49
351,Juneau,20,US,1578290819,79,58.3,-134.42,269.26,4.6
352,Synya,98,RU,1578290820,94,65.37,58.04,260.29,3.27
353,Beira,75,ES,1578290820,100,43.2,-8.36,279.82,4.1
354,Ust-Nera,100,RU,1578290820,100,64.57,143.24,241.37,0.75
355,Windhoek,96,NA,1578290821,63,-22.57,17.08,292.15,1.0
356,Port Macquarie,26,AU,1578290821,61,-31.43,152.91,303.15,6.7
357,Aykhal,100,RU,1578290822,84,65.95,111.51,257.15,3.0
358,Acari,100,BR,1578290822,78,-6.44,-36.64,295.95,5.02
359,Pathein,16,MM,1578290822,69,16.78,94.73,300.04,4.66
360,Anzio,0,IT,1578290822,55,41.45,12.63,279.82,3.6
361,Santa Vitoria do Palmar,1,BR,1578290822,86,-33.52,-53.37,294.37,5.42
362,Rome,0,IT,1578290555,55,41.89,12.48,279.82,3.6
363,Lensk,100,RU,1578290822,91,60.71,114.91,263.47,6.85
364,Hun,20,BE,1578290822,86,50.34,4.87,278.15,1.5
365,San Quintin,0,PH,1578290823,54,17.54,120.52,302.06,2.47
366,Padang,0,ID,1578290823,50,-0.92,100.36,303.07,1.08
367,Verkhnyaya Inta,93,RU,1578290823,91,65.99,60.32,261.33,8.29
368,Muros,75,ES,1578290823,100,42.77,-9.06,281.48,2.1
369,Wageningen,90,NL,1578290823,100,51.98,5.66,279.82,3.6
370,Sayyan,0,YE,1578290823,54,15.17,44.32,289.54,2.33
371,KALAS,90,PK,1578290823,100,33.49,72.96,282.04,3.1
372,Lumut,75,BN,1578290823,59,4.66,114.45,306.15,4.1
373,Ewa Beach,40,US,1578290824,73,21.32,-158.01,298.15,6.7
374,Rairangpur,0,IN,1578290824,56,22.27,86.18,293.15,1.5
375,Tadine,0,NC,1578290824,71,-21.55,167.88,298.87,5.48
376,Lata,100,IN,1578290570,79,30.78,78.62,267.65,2.39
377,Mitsamiouli,20,KM,1578290824,66,-11.38,43.28,303.15,1.5
378,La Ronge,90,CA,1578290825,77,55.1,-105.3,258.15,2.1
379,Hirara,75,JP,1578290825,64,24.8,125.28,296.15,5.7
380,Piacabucu,100,BR,1578290825,87,-10.41,-36.43,297.88,3.43
381,Samarai,36,PG,1578290825,72,-10.62,150.67,302.19,3.91
382,Soyo,75,AO,1578290825,94,-6.13,12.37,299.15,1.76
383,Einsiedeln,90,CH,1578290825,92,47.13,8.75,273.71,2.1
384,Bonthe,0,SL,1578290825,84,7.53,-12.5,294.57,2.92
385,Formosa,35,BR,1578290826,98,-15.55,-47.33,290.25,1.91
386,Payakumbuh,2,ID,1578290826,59,-0.23,100.63,300.49,2.62
387,Rio Gallegos,22,AR,1578290826,75,-51.62,-69.22,279.15,3.1
388,Tifton,1,US,1578290826,75,31.45,-83.51,279.15,2.7
389,Qasigiannguit,100,GL,1578290765,77,68.82,-51.19,259.15,8.2
390,Olinda,90,AU,1578290827,87,-37.84,145.39,289.26,5.7
391,Dwarka,75,IN,1578290827,48,28.58,77.04,291.48,2.1
392,Casper,20,US,1578290557,67,42.87,-106.31,271.48,4.1
393,Kailua,40,US,1578290827,73,21.39,-157.74,298.15,6.7
394,Codrington,40,AU,1578290827,48,-28.95,153.24,305.15,5.7
395,Sembakung,100,ID,1578290828,53,3.82,117.25,304.17,2.18
396,Santa Cruz,98,BR,1578290828,88,-6.22,-36.02,295.89,2.25
397,Honiara,40,SB,1578290828,79,-9.43,159.96,304.15,2.6
398,Renqiu,23,CN,1578290828,64,38.71,116.1,278.16,3.17
399,Matagami,61,NG,1578290828,36,9.67,8.4,291.09,2.44
400,North Battleford,1,CA,1578290797,73,52.78,-108.3,266.15,3.1
401,Chatrapur,0,IN,1578290829,48,19.35,84.98,297.73,4.03
402,Touros,40,BR,1578290829,83,-5.2,-35.46,299.15,1.0
403,Ilo,100,PE,1578290829,86,-17.65,-71.34,295.09,4.76
404,Port Lincoln,1,AU,1578290829,53,-34.72,135.86,293.73,5.07
405,Beberibe,40,BR,1578290829,78,-4.18,-38.13,303.15,2.6
406,Banjar,88,ID,1578290829,78,-7.37,108.54,301.76,2.02
407,Yenagoa,43,NG,1578290829,76,4.92,6.26,295.98,0.89
408,Port Blair,40,IN,1578290829,70,11.67,92.75,302.15,6.2
409,Salmas,75,IR,1578290829,86,38.2,44.77,271.15,1.0
410,Kapustin Yar,97,RU,1578290829,81,48.58,45.77,274.12,2.76
411,Challans,10,FR,1578290830,88,46.85,-1.88,274.15,1.5
412,Asosa,0,ET,1578290830,42,10.07,34.53,294.63,3.34
413,Cabedelo,20,BR,1578290830,83,-6.97,-34.84,299.15,2.1
414,Salekhard,32,RU,1578290830,87,66.54,66.62,261.22,4.99
415,Guozhen,100,CN,1578290830,88,29.3,113.14,283.12,2.68
416,Coahuayana,0,MX,1578290830,56,18.62,-100.35,293.65,1.11
417,San Policarpo,40,PH,1578290830,75,12.18,125.51,300.89,6.12
418,Uspantan,84,GT,1578290831,93,15.35,-90.87,283.46,0.38
419,Idrinskoye,89,RU,1578290831,87,54.37,92.14,263.75,1.82
420,Umm Kaddadah,2,SD,1578290831,22,13.6,26.69,286.61,5.85
421,Geraldton,90,CA,1578290831,85,49.72,-86.95,265.15,4.1
422,Suffolk,1,US,1578290701,80,36.73,-76.58,278.71,2.1
423,Alofi,40,NU,1578290677,88,-19.06,-169.92,299.15,4.1
424,Ahipara,1,NZ,1578290832,72,-35.17,173.16,291.48,0.45
425,Rafraf,20,TN,1578290832,81,37.19,10.18,285.15,1.5
426,Gat,0,SN,1578290832,42,14.69,-16.54,291.15,7.2
427,Kruszwica,90,PL,1578290832,92,52.67,18.33,274.82,5.1
428,Moree,0,AU,1578290832,16,-29.46,149.84,310.15,4.1
429,Kahului,40,US,1578290832,69,20.89,-156.47,297.15,4.1
430,Lysva,100,RU,1578290832,96,58.11,57.8,265.84,3.05
431,Puerto Guzman,100,BO,1578290832,96,-14.32,-67.54,294.55,0.6
432,Iisalmi,90,FI,1578290832,92,63.56,27.19,270.15,3.1
433,Bireun,48,ID,1578290833,62,5.2,96.7,300.06,2.29
434,Newton,15,US,1578290704,73,42.34,-71.21,271.15,5.1
435,Marzuq,2,YE,1578290833,43,14.4,46.47,296.19,0.82
436,Vanimo,100,PG,1578290833,73,-2.67,141.3,300.79,2.98
437,Zajecar,0,RS,1578290833,77,43.9,22.28,270.05,2.75
438,Tarnogskiy Gorodok,0,RU,1578290833,89,60.5,43.58,261.24,2.15
439,Toora-Khem,43,RU,1578290833,82,52.47,96.11,258.92,0.93
440,Kangundo,75,KE,1578290834,88,-1.3,37.35,292.15,2.6
441,Bad Kreuznach,49,DE,1578290834,100,49.84,7.87,274.82,2.1
442,Deep River,20,CA,1578290834,85,46.1,-77.49,264.82,2.6
443,Washougal,90,US,1578290834,81,45.58,-122.35,280.37,2.6
444,Omboue,97,GA,1578290834,90,-1.57,9.26,297.74,0.35
445,Sarangani,27,PH,1578290834,75,5.4,125.46,300.89,10.34
446,Ponta Delgada,40,PT,1578290835,93,37.73,-25.67,291.15,8.2
447,Kearney,1,US,1578290666,86,40.7,-99.08,270.37,1.5
448,Charters Towers,37,AU,1578290835,43,-20.07,146.27,304.72,7.53
449,Bathsheba,75,BB,1578290835,94,13.22,-59.52,297.15,5.7
450,Abu Zabad,0,SD,1578290835,18,12.35,29.25,288.21,6.77
451,Marrakesh,0,MA,1578290836,87,31.63,-7.99,280.15,0.5
452,Tabou,0,CI,1578290836,79,4.42,-7.36,292.34,1.7
453,Esil,64,KZ,1578290836,96,51.96,66.41,264.44,2.73
454,Gadu,0,IN,1578290836,36,21.05,70.29,301.57,5.1
455,Conakry,17,GN,1578290836,78,9.52,-13.7,297.15,2.11
456,Santa Isabel do Rio Negro,92,BR,1578290836,95,-0.41,-65.02,296.63,0.54
457,Magaria,94,NE,1578290836,31,13.0,8.91,287.91,4.06
458,The Valley,20,AI,1578290836,74,18.22,-63.06,299.15,4.1
459,Chumphon,75,TH,1578290836,70,10.5,99.18,303.15,2.6
460,Zhezkazgan,90,KZ,1578290837,85,47.8,67.71,262.15,6.0
461,Mattawa,90,CA,1578290837,92,46.32,-78.7,267.59,5.7
462,Hobara,75,JP,1578290837,34,37.82,140.55,282.15,8.2
463,Encruzilhada,100,BR,1578290837,98,-15.53,-40.91,292.75,1.16
464,Opuwo,100,NA,1578290838,82,-18.06,13.84,291.96,1.45
465,Cukai,40,MY,1578290838,88,4.25,103.42,302.15,2.6
466,Bitlis,75,TR,1578290838,93,38.4,42.11,278.15,1.0
467,Cercal,0,PT,1578290838,81,37.8,-8.67,282.59,1.34
468,Morgan City,90,US,1578290838,100,29.7,-91.21,285.37,1.5
469,Cross Lanes,99,GB,1578290839,81,50.05,-5.22,283.71,8.2
470,Sambava,63,MG,1578290839,57,-14.27,50.17,303.79,0.23
471,Mount Gambier,0,AU,1578290772,40,-37.83,140.78,296.15,7.7
472,Mlimba,97,TZ,1578290839,79,-8.78,35.81,298.91,0.69
473,Malindi,20,KE,1578290839,88,-3.22,40.12,300.15,0.41
474,Ginda,99,IN,1578290839,32,30.69,78.49,284.02,1.84
475,Calama,40,CL,1578290839,81,-22.46,-68.93,283.15,1.0
476,Yangambi,100,CD,1578290839,86,0.77,24.47,294.5,0.81
477,Xiamen,3,CN,1578290840,57,24.46,118.07,297.15,1.0
478,Manzanillo,0,MX,1578290840,55,19.05,-104.32,297.36,2.1
479,Changji,100,CN,1578290840,95,32.07,116.17,280.8,2.31
480,College,97,US,1578290840,74,64.86,-147.8,245.93,0.78
481,Elin Pelin,75,BG,1578290840,79,42.67,23.6,270.15,4.1
482,Hami,100,CN,1578290840,36,42.84,93.51,271.48,0.46
483,Belogorsk,100,RU,1578290840,92,50.92,128.47,254.19,1.9
484,Eyl,34,SO,1578290840,81,7.98,49.82,299.58,5.94
485,Verkhoyansk,0,RU,1578290840,88,67.55,133.39,239.91,0.07
486,Paka,0,CF,1578290841,44,4.15,15.03,291.42,1.14
487,Rongcheng,100,CN,1578290841,68,37.16,122.42,279.26,5.06
488,Broome,90,GB,1578290841,70,52.47,1.45,280.93,6.7
489,Iskateley,96,RU,1578290683,85,67.68,53.15,264.44,5.82
490,Salalah,75,OM,1578290841,73,17.01,54.1,298.15,2.1
491,Tazovskiy,4,RU,1578290841,90,67.47,78.7,259.55,6.39
492,Blind River,90,CA,1578290842,92,46.19,-82.96,272.15,3.1
493,Gornopravdinsk,100,RU,1578290842,96,60.06,69.92,262.44,3.13
494,Wattegama,29,LK,1578290842,42,7.35,80.68,304.67,2.62
495,Thinadhoo,86,MV,1578290842,73,0.53,72.93,302.14,6.13
496,Porbandar,0,IN,1578290842,46,21.64,69.61,296.15,4.6
497,Guerrero Negro,54,MX,1578290843,72,27.97,-114.04,289.37,4.41
498,Yerbogachen,100,RU,1578290843,92,61.28,108.01,262.74,5.23
499,Grafton,40,AU,1578290843,48,-29.69,152.93,303.15,4.6
500,Yar-Sale,0,RU,1578290843,88,66.83,70.83,260.64,7.48
501,Preobrazheniye,94,RU,1578290843,62,42.9,133.91,271.73,0.45
502,Alma,90,US,1578290844,61,39.28,-106.06,271.15,10.3
503,Przhevalskoye,76,RU,1578290844,86,55.51,31.85,269.55,2.42
504,Massena,1,US,1578290844,85,44.93,-74.89,265.37,1.5
505,Nioro,0,GM,1578290845,19,13.79,-15.05,288.78,4.2
506,Kitgum,0,UG,1578290846,46,3.3,32.88,299.73,0.52
507,Baykit,97,RU,1578290846,94,61.68,96.39,263.03,2.25
508,Griffith,40,AU,1578290846,53,-34.29,146.06,298.15,5.7
509,Vigrestad,90,NO,1578290846,93,58.57,5.7,281.15,4.6
510,Peranamallur,14,IN,1578290846,67,12.57,79.43,301.42,3.79
511,Tomohon,40,ID,1578290704,59,1.33,124.84,305.15,3.1
512,Broken Hill,100,AU,1578290847,56,-31.97,141.45,293.15,7.2
513,Dubbo,96,AU,1578290847,19,-32.25,148.6,310.15,5.7
514,Fetesti,40,RO,1578290847,73,44.38,27.83,275.37,9.8
515,Hauge,99,NO,1578290847,86,59.25,10.99,279.15,3.6
516,Sao Joao da Barra,63,BR,1578290847,91,-21.64,-41.05,297.34,1.86
517,Sibolga,4,ID,1578290847,44,1.74,98.78,306.4,1.11
518,Adrar,0,DZ,1578290847,55,27.87,-0.29,276.15,5.1
519,Yulara,95,AU,1578290847,42,-25.24,130.99,302.15,5.7
520,Rotifunk,0,SL,1578290848,93,8.23,-12.68,292.25,1.22
521,Christchurch,100,NZ,1578290579,62,-43.53,172.64,289.82,4.6
522,Pakokku,92,MM,1578290848,67,21.33,95.09,294.1,4.49
523,Brae,20,GB,1578290848,93,60.4,-1.35,282.15,9.3
524,Yevsino,87,RU,1578290848,94,54.42,83.32,263.26,4.49
525,Valparaiso,75,US,1578290553,74,41.47,-87.06,275.37,4.6
526,Lavrentiya,0,RU,1578290848,81,65.58,-170.99,249.14,1.14
527,Puerto Princesa,40,PH,1578290849,70,9.74,118.73,304.15,4.1
528,Salinopolis,73,BR,1578290849,77,-0.61,-47.36,300.64,5.41
529,Maldonado,18,UY,1578290606,60,-34.91,-54.96,295.15,7.2
530,Weatherford,1,US,1578290849,60,32.76,-97.8,282.59,1.5
531,Mahibadhoo,76,MV,1578290849,79,3.78,72.97,301.27,6.3
532,Arawa,99,ID,1578290849,48,-3.93,119.75,306.74,4.84
533,Mazamari,100,PE,1578290849,95,-11.33,-74.53,289.41,1.3
534,Oistins,75,BB,1578290849,94,13.07,-59.53,297.15,5.7
535,Visby,90,SE,1578290850,89,57.64,18.3,278.71,6.7
536,Rzeszow,40,PL,1578290850,92,50.04,22.0,270.37,2.1
537,Bambanglipuro,49,ID,1578290851,67,-7.95,110.28,302.85,5.5
538,Taldan,100,RU,1578290851,92,53.69,124.82,252.79,0.92
539,Kidal,0,ML,1578290851,30,18.44,1.41,283.59,5.17
540,Havoysund,40,NO,1578290851,73,71.0,24.66,269.15,3.6
541,Magnolia,1,US,1578290851,86,33.27,-93.24,280.15,0.35
542,Constitucion,92,MX,1578290852,42,23.99,-104.67,280.93,2.68
543,Kandrian,50,PG,1578290852,86,-6.21,149.55,300.6,0.19
